{
  "type": "FeatureCollection",
  "features": [
    {
      "type": "Feature",
      "properties": {
        "marker-color": "#DC4C3F",
        "name": "A12 Leytonstone E 3860",
        "online": false,
        "public": true,
        "marker-symbol": ""
      },
      "geometry": {
        "type": "Point",
        "coordinates": [
          0.0074593816,
          51.568687
        ]
      }
    },
    {
      "type": "Feature",
      "properties": {
        "marker-color": "#DC4C3F",
        "name": "Castle Gree",
        "online": false,
        "public": true,
        "marker-symbol": ""
      },
      "geometry": {
        "type": "Point",
        "coordinates": [
          0.12443804,
          51.531734
        ]
      }
    },
    {
      "type": "Feature",
      "properties": {
        "marker-color": "#DC4C3F",
        "name": "A41 Finchley Rd/Queen G",
        "online": false,
        "public": true,
        "marker-symbol": ""
      },
      "geometry": {
        "type": "Point",
        "coordinates": [
          -0.17614692,
          51.536873
        ]
      }
    },
    {
      "type": "Feature",
      "properties": {
        "marker-color": "#DC4C3F",
        "name": "Baylis Rd/Westminster B",
        "online": false,
        "public": true,
        "marker-symbol": ""
      },
      "geometry": {
        "type": "Point",
        "coordinates": [
          -0.11241848,
          51.498737
        ]
      }
    },
    {
      "type": "Feature",
      "properties": {
        "marker-color": "#DC4C3F",
        "name": "Shepherds Bush Rd/Westw",
        "online": false,
        "public": true,
        "marker-symbol": ""
      },
      "geometry": {
        "type": "Point",
        "coordinates": [
          -0.22202294,
          51.50151
        ]
      }
    },
    {
      "type": "Feature",
      "properties": {
        "marker-color": "#DC4C3F",
        "name": "Blackfriars Rd/St Georg",
        "online": false,
        "public": true,
        "marker-symbol": ""
      },
      "geometry": {
        "type": "Point",
        "coordinates": [
          -0.10493144,
          51.498966
        ]
      }
    },
    {
      "type": "Feature",
      "properties": {
        "marker-color": "#DC4C3F",
        "name": "Wennington Viaduct",
        "online": false,
        "public": true,
        "marker-symbol": ""
      },
      "geometry": {
        "type": "Point",
        "coordinates": [
          0.21102625,
          51.503273
        ]
      }
    },
    {
      "type": "Feature",
      "properties": {
        "marker-color": "#DC4C3F",
        "name": "Old Kent Rd/Albany R",
        "online": false,
        "public": true,
        "marker-symbol": ""
      },
      "geometry": {
        "type": "Point",
        "coordinates": [
          -0.076688044,
          51.48812
        ]
      }
    },
    {
      "type": "Feature",
      "properties": {
        "marker-color": "#DC4C3F",
        "name": "A23/Stafford Roa",
        "online": false,
        "public": true,
        "marker-symbol": ""
      },
      "geometry": {
        "type": "Point",
        "coordinates": [
          -0.118476786,
          51.3648
        ]
      }
    },
    {
      "type": "Feature",
      "properties": {
        "marker-color": "#DC4C3F",
        "name": "Addiscombe Rd/Cherry Or",
        "online": false,
        "public": true,
        "marker-symbol": ""
      },
      "geometry": {
        "type": "Point",
        "coordinates": [
          -0.09123266,
          51.375336
        ]
      }
    },
    {
      "type": "Feature",
      "properties": {
        "marker-color": "#DC4C3F",
        "name": "Limehouse Tunnel/Butche",
        "online": false,
        "public": true,
        "marker-symbol": ""
      },
      "geometry": {
        "type": "Point",
        "coordinates": [
          -0.04181708,
          51.5106
        ]
      }
    },
    {
      "type": "Feature",
      "properties": {
        "marker-color": "#DC4C3F",
        "name": "Watford Way/Mill Hill C",
        "online": false,
        "public": true,
        "marker-symbol": ""
      },
      "geometry": {
        "type": "Point",
        "coordinates": [
          -0.24214633,
          51.61538
        ]
      }
    },
    {
      "type": "Feature",
      "properties": {
        "marker-color": "#DC4C3F",
        "name": "Blackfriars Rd/Dolben S",
        "online": false,
        "public": true,
        "marker-symbol": ""
      },
      "geometry": {
        "type": "Point",
        "coordinates": [
          -0.10465769,
          51.50487
        ]
      }
    },
    {
      "type": "Feature",
      "properties": {
        "marker-color": "#DC4C3F",
        "name": "A30 Great Sth/W Rd/The",
        "online": false,
        "public": true,
        "marker-symbol": ""
      },
      "geometry": {
        "type": "Point",
        "coordinates": [
          -0.4049646,
          51.472534
        ]
      }
    },
    {
      "type": "Feature",
      "properties": {
        "marker-color": "#DC4C3F",
        "name": "Finchley Rd Sth of Rose",
        "online": false,
        "public": true,
        "marker-symbol": ""
      },
      "geometry": {
        "type": "Point",
        "coordinates": [
          -0.18170756,
          51.54931
        ]
      }
    },
    {
      "type": "Feature",
      "properties": {
        "marker-color": "#DC4C3F",
        "name": "Holloway Rd Sth Palmer",
        "online": false,
        "public": true,
        "marker-symbol": ""
      },
      "geometry": {
        "type": "Point",
        "coordinates": [
          -0.10888642,
          51.54994
        ]
      }
    },
    {
      "type": "Feature",
      "properties": {
        "marker-color": "#DC4C3F",
        "name": "A406 NCR Henlys Corne",
        "online": false,
        "public": true,
        "marker-symbol": ""
      },
      "geometry": {
        "type": "Point",
        "coordinates": [
          -0.20007908,
          51.58996
        ]
      }
    },
    {
      "type": "Feature",
      "properties": {
        "marker-color": "#DC4C3F",
        "name": "Millennium Wy/Edmund Ha",
        "online": false,
        "public": true,
        "marker-symbol": ""
      },
      "geometry": {
        "type": "Point",
        "coordinates": [
          0.002889991,
          51.49785
        ]
      }
    },
    {
      "type": "Feature",
      "properties": {
        "marker-color": "#DC4C3F",
        "name": "Shepherd Bush Gr/Wood L",
        "online": false,
        "public": true,
        "marker-symbol": ""
      },
      "geometry": {
        "type": "Point",
        "coordinates": [
          -0.22476459,
          51.50511
        ]
      }
    },
    {
      "type": "Feature",
      "properties": {
        "marker-color": "#DC4C3F",
        "name": "Queens Road/Woods Roa",
        "online": false,
        "public": true,
        "marker-symbol": ""
      },
      "geometry": {
        "type": "Point",
        "coordinates": [
          -0.062336974,
          51.473953
        ]
      }
    },
    {
      "type": "Feature",
      "properties": {
        "marker-color": "#DC4C3F",
        "name": "A21 London Rd/Tweedy R",
        "online": false,
        "public": true,
        "marker-symbol": ""
      },
      "geometry": {
        "type": "Point",
        "coordinates": [
          0.0108650215,
          51.408936
        ]
      }
    },
    {
      "type": "Feature",
      "properties": {
        "marker-color": "#DC4C3F",
        "name": "High St/Station way/The",
        "online": false,
        "public": true,
        "marker-symbol": ""
      },
      "geometry": {
        "type": "Point",
        "coordinates": [
          -0.21576032,
          51.35773
        ]
      }
    },
    {
      "type": "Feature",
      "properties": {
        "marker-color": "#DC4C3F",
        "name": "Camden High St/Kentish",
        "online": false,
        "public": true,
        "marker-symbol": ""
      },
      "geometry": {
        "type": "Point",
        "coordinates": [
          -0.14264639,
          51.5391
        ]
      }
    },
    {
      "type": "Feature",
      "properties": {
        "marker-color": "#DC4C3F",
        "name": "Loampit Vale/Thurston R",
        "online": false,
        "public": true,
        "marker-symbol": ""
      },
      "geometry": {
        "type": "Point",
        "coordinates": [
          -0.015215168,
          51.464462
        ]
      }
    },
    {
      "type": "Feature",
      "properties": {
        "marker-color": "#DC4C3F",
        "name": "A2 Danso",
        "online": false,
        "public": true,
        "marker-symbol": ""
      },
      "geometry": {
        "type": "Point",
        "coordinates": [
          0.11982966,
          51.449253
        ]
      }
    },
    {
      "type": "Feature",
      "properties": {
        "marker-color": "#DC4C3F",
        "name": "Tottenham High Road / S",
        "online": false,
        "public": true,
        "marker-symbol": ""
      },
      "geometry": {
        "type": "Point",
        "coordinates": [
          -0.07226262,
          51.583073
        ]
      }
    },
    {
      "type": "Feature",
      "properties": {
        "marker-color": "#DC4C3F",
        "name": "Commercial Rd/Cannon St",
        "online": false,
        "public": true,
        "marker-symbol": ""
      },
      "geometry": {
        "type": "Point",
        "coordinates": [
          -0.06163288,
          51.51467
        ]
      }
    },
    {
      "type": "Feature",
      "properties": {
        "marker-color": "#DC4C3F",
        "name": "Crown Lane/Grasmere Ave",
        "online": false,
        "public": true,
        "marker-symbol": ""
      },
      "geometry": {
        "type": "Point",
        "coordinates": [
          -0.19698037,
          51.401806
        ]
      }
    },
    {
      "type": "Feature",
      "properties": {
        "marker-color": "#DC4C3F",
        "name": "A10 South of Farleigh Rd",
        "online": false,
        "public": true,
        "marker-symbol": ""
      },
      "geometry": {
        "type": "Point",
        "coordinates": [
          -0.07465654,
          51.554775
        ]
      }
    },
    {
      "type": "Feature",
      "properties": {
        "marker-color": "#DC4C3F",
        "name": "A205 Waldram Pk Rd/West",
        "online": false,
        "public": true,
        "marker-symbol": ""
      },
      "geometry": {
        "type": "Point",
        "coordinates": [
          -0.05056057,
          51.44011
        ]
      }
    },
    {
      "type": "Feature",
      "properties": {
        "marker-color": "#DC4C3F",
        "name": "A12 Preston Driv",
        "online": false,
        "public": true,
        "marker-symbol": ""
      },
      "geometry": {
        "type": "Point",
        "coordinates": [
          0.035903033,
          51.577457
        ]
      }
    },
    {
      "type": "Feature",
      "properties": {
        "marker-color": "#DC4C3F",
        "name": "Wood Lane/South Africa",
        "online": false,
        "public": true,
        "marker-symbol": ""
      },
      "geometry": {
        "type": "Point",
        "coordinates": [
          -0.2252261,
          51.51289
        ]
      }
    },
    {
      "type": "Feature",
      "properties": {
        "marker-color": "#DC4C3F",
        "name": "A10 High Rd/Forster Rd",
        "online": false,
        "public": true,
        "marker-symbol": ""
      },
      "geometry": {
        "type": "Point",
        "coordinates": [
          -0.07001277,
          51.591885
        ]
      }
    },
    {
      "type": "Feature",
      "properties": {
        "marker-color": "#DC4C3F",
        "name": "A102 Tunnel Avenu",
        "online": false,
        "public": true,
        "marker-symbol": ""
      },
      "geometry": {
        "type": "Point",
        "coordinates": [
          0.0030679705,
          51.495995
        ]
      }
    },
    {
      "type": "Feature",
      "properties": {
        "marker-color": "#DC4C3F",
        "name": "Caselas View",
        "online": false,
        "public": true,
        "marker-symbol": ""
      },
      "geometry": {
        "type": "Point",
        "coordinates": [
          0.0,
          0.0
        ]
      }
    },
    {
      "type": "Feature",
      "properties": {
        "marker-color": "#DC4C3F",
        "name": "Holland Park Roundabou",
        "online": false,
        "public": true,
        "marker-symbol": ""
      },
      "geometry": {
        "type": "Point",
        "coordinates": [
          -0.21833332,
          51.504124
        ]
      }
    },
    {
      "type": "Feature",
      "properties": {
        "marker-color": "#DC4C3F",
        "name": "G&#039;nor Gdns/Bucking",
        "online": false,
        "public": true,
        "marker-symbol": ""
      },
      "geometry": {
        "type": "Point",
        "coordinates": [
          -0.1455538,
          51.49701
        ]
      }
    },
    {
      "type": "Feature",
      "properties": {
        "marker-color": "#DC4C3F",
        "name": "Curtain Rd / Old Street",
        "online": false,
        "public": true,
        "marker-symbol": ""
      },
      "geometry": {
        "type": "Point",
        "coordinates": [
          -0.08051296,
          51.52702
        ]
      }
    },
    {
      "type": "Feature",
      "properties": {
        "marker-color": "#DC4C3F",
        "name": "Lwr Lea Crossing/Blackw",
        "online": false,
        "public": true,
        "marker-symbol": ""
      },
      "geometry": {
        "type": "Point",
        "coordinates": [
          0.0020458694,
          51.510147
        ]
      }
    },
    {
      "type": "Feature",
      "properties": {
        "marker-color": "#DC4C3F",
        "name": "Hammersmith Bway/Shephe",
        "online": false,
        "public": true,
        "marker-symbol": ""
      },
      "geometry": {
        "type": "Point",
        "coordinates": [
          -0.22386542,
          51.49303
        ]
      }
    },
    {
      "type": "Feature",
      "properties": {
        "marker-color": "#DC4C3F",
        "name": "Roehampton Vale/Stag La",
        "online": false,
        "public": true,
        "marker-symbol": ""
      },
      "geometry": {
        "type": "Point",
        "coordinates": [
          -0.24864459,
          51.43884
        ]
      }
    },
    {
      "type": "Feature",
      "properties": {
        "marker-color": "#DC4C3F",
        "name": "A2 New Cross Rd/Besson",
        "online": false,
        "public": true,
        "marker-symbol": ""
      },
      "geometry": {
        "type": "Point",
        "coordinates": [
          -0.04714672,
          51.475266
        ]
      }
    },
    {
      "type": "Feature",
      "properties": {
        "marker-color": "#DC4C3F",
        "name": "Jejuite",
        "online": false,
        "public": true,
        "marker-symbol": ""
      },
      "geometry": {
        "type": "Point",
        "coordinates": [
          0.0,
          0.0
        ]
      }
    },
    {
      "type": "Feature",
      "properties": {
        "marker-color": "#DC4C3F",
        "name": "A23/Commerce Wa",
        "online": false,
        "public": true,
        "marker-symbol": ""
      },
      "geometry": {
        "type": "Point",
        "coordinates": [
          -0.11874639,
          51.374344
        ]
      }
    },
    {
      "type": "Feature",
      "properties": {
        "marker-color": "#DC4C3F",
        "name": "Inkterseccion Tattoo",
        "online": false,
        "public": true,
        "marker-symbol": ""
      },
      "geometry": {
        "type": "Point",
        "coordinates": [
          -0.8690218,
          41.639674
        ]
      }
    },
    {
      "type": "Feature",
      "properties": {
        "marker-color": "#DC4C3F",
        "name": "Prince Albert Rd/Parkwa",
        "online": false,
        "public": true,
        "marker-symbol": ""
      },
      "geometry": {
        "type": "Point",
        "coordinates": [
          -0.14681378,
          51.536263
        ]
      }
    },
    {
      "type": "Feature",
      "properties": {
        "marker-color": "#DC4C3F",
        "name": "Acre Lane/Coldharbour L",
        "online": false,
        "public": true,
        "marker-symbol": ""
      },
      "geometry": {
        "type": "Point",
        "coordinates": [
          -0.11562981,
          51.461388
        ]
      }
    },
    {
      "type": "Feature",
      "properties": {
        "marker-color": "#DC4C3F",
        "name": "A4200 Woburn Pl/Russell",
        "online": false,
        "public": true,
        "marker-symbol": ""
      },
      "geometry": {
        "type": "Point",
        "coordinates": [
          -0.12583646,
          51.522854
        ]
      }
    },
    {
      "type": "Feature",
      "properties": {
        "marker-color": "#DC4C3F",
        "name": "Bow Rd/Alfred S",
        "online": false,
        "public": true,
        "marker-symbol": ""
      },
      "geometry": {
        "type": "Point",
        "coordinates": [
          -0.025495335,
          51.527115
        ]
      }
    },
    {
      "type": "Feature",
      "properties": {
        "marker-color": "#DC4C3F",
        "name": "Albert Emb/Glasshouse W",
        "online": false,
        "public": true,
        "marker-symbol": ""
      },
      "geometry": {
        "type": "Point",
        "coordinates": [
          -0.12293753,
          51.488876
        ]
      }
    },
    {
      "type": "Feature",
      "properties": {
        "marker-color": "#DC4C3F",
        "name": "A21 Bromley Rd/Newquay",
        "online": false,
        "public": true,
        "marker-symbol": ""
      },
      "geometry": {
        "type": "Point",
        "coordinates": [
          -0.018504212,
          51.437054
        ]
      }
    },
    {
      "type": "Feature",
      "properties": {
        "marker-color": "#DC4C3F",
        "name": "Harrow Rd/Lord Hills Br",
        "online": false,
        "public": true,
        "marker-symbol": ""
      },
      "geometry": {
        "type": "Point",
        "coordinates": [
          -0.18874352,
          51.51959
        ]
      }
    },
    {
      "type": "Feature",
      "properties": {
        "marker-color": "#DC4C3F",
        "name": "H.Stead Rd/Mornington C",
        "online": false,
        "public": true,
        "marker-symbol": ""
      },
      "geometry": {
        "type": "Point",
        "coordinates": [
          -0.13926491,
          51.534325
        ]
      }
    },
    {
      "type": "Feature",
      "properties": {
        "marker-color": "#DC4C3F",
        "name": "Twr Brdge Rd/Grange R",
        "online": false,
        "public": true,
        "marker-symbol": ""
      },
      "geometry": {
        "type": "Point",
        "coordinates": [
          -0.08187003,
          51.496784
        ]
      }
    },
    {
      "type": "Feature",
      "properties": {
        "marker-color": "#DC4C3F",
        "name": "Pier Road/Woolwich Ferr",
        "online": false,
        "public": true,
        "marker-symbol": ""
      },
      "geometry": {
        "type": "Point",
        "coordinates": [
          0.0636799,
          51.49891
        ]
      }
    },
    {
      "type": "Feature",
      "properties": {
        "marker-color": "#DC4C3F",
        "name": "Brixton Hill /Lambert R",
        "online": false,
        "public": true,
        "marker-symbol": ""
      },
      "geometry": {
        "type": "Point",
        "coordinates": [
          -0.11940526,
          51.45534
        ]
      }
    },
    {
      "type": "Feature",
      "properties": {
        "marker-color": "#DC4C3F",
        "name": "Heath Rd/King St Parad",
        "online": false,
        "public": true,
        "marker-symbol": ""
      },
      "geometry": {
        "type": "Point",
        "coordinates": [
          -0.3300082,
          51.44561
        ]
      }
    },
    {
      "type": "Feature",
      "properties": {
        "marker-color": "#DC4C3F",
        "name": "Battersea Brdg Rd/Westb",
        "online": false,
        "public": true,
        "marker-symbol": ""
      },
      "geometry": {
        "type": "Point",
        "coordinates": [
          -0.16969752,
          51.478
        ]
      }
    },
    {
      "type": "Feature",
      "properties": {
        "marker-color": "#DC4C3F",
        "name": "Caledonian R/Caledonia",
        "online": false,
        "public": true,
        "marker-symbol": ""
      },
      "geometry": {
        "type": "Point",
        "coordinates": [
          -0.120926514,
          51.531822
        ]
      }
    },
    {
      "type": "Feature",
      "properties": {
        "marker-color": "#DC4C3F",
        "name": "341 A2 Dursley R",
        "online": false,
        "public": true,
        "marker-symbol": ""
      },
      "geometry": {
        "type": "Point",
        "coordinates": [
          0.029128823,
          51.468063
        ]
      }
    },
    {
      "type": "Feature",
      "properties": {
        "marker-color": "#DC4C3F",
        "name": "Hobart Place/Grosvenor",
        "online": false,
        "public": true,
        "marker-symbol": ""
      },
      "geometry": {
        "type": "Point",
        "coordinates": [
          -0.14694618,
          51.4982
        ]
      }
    },
    {
      "type": "Feature",
      "properties": {
        "marker-color": "#DC4C3F",
        "name": "A23 Streatham H Rd/Stre",
        "online": false,
        "public": true,
        "marker-symbol": ""
      },
      "geometry": {
        "type": "Point",
        "coordinates": [
          -0.12800024,
          51.41975
        ]
      }
    },
    {
      "type": "Feature",
      "properties": {
        "marker-color": "#DC4C3F",
        "name": "Wickham Rd/Monks Orchar",
        "online": false,
        "public": true,
        "marker-symbol": ""
      },
      "geometry": {
        "type": "Point",
        "coordinates": [
          -0.028572053,
          51.377304
        ]
      }
    },
    {
      "type": "Feature",
      "properties": {
        "marker-color": "#DC4C3F",
        "name": "Seven Sisters Rd by Sus",
        "online": false,
        "public": true,
        "marker-symbol": ""
      },
      "geometry": {
        "type": "Point",
        "coordinates": [
          -0.115655035,
          51.559963
        ]
      }
    },
    {
      "type": "Feature",
      "properties": {
        "marker-color": "#DC4C3F",
        "name": "Cambridge Circu",
        "online": false,
        "public": true,
        "marker-symbol": ""
      },
      "geometry": {
        "type": "Point",
        "coordinates": [
          -0.12910207,
          51.51317
        ]
      }
    },
    {
      "type": "Feature",
      "properties": {
        "marker-color": "#DC4C3F",
        "name": "York Road/Falcon Roa",
        "online": false,
        "public": true,
        "marker-symbol": ""
      },
      "geometry": {
        "type": "Point",
        "coordinates": [
          -0.17174579,
          51.469994
        ]
      }
    },
    {
      "type": "Feature",
      "properties": {
        "marker-color": "#DC4C3F",
        "name": "Waterworks Eastbound On",
        "online": false,
        "public": true,
        "marker-symbol": ""
      },
      "geometry": {
        "type": "Point",
        "coordinates": [
          0.019261997,
          51.595688
        ]
      }
    },
    {
      "type": "Feature",
      "properties": {
        "marker-color": "#DC4C3F",
        "name": "75 Knightsbridge/Willia",
        "online": false,
        "public": true,
        "marker-symbol": ""
      },
      "geometry": {
        "type": "Point",
        "coordinates": [
          -0.15767714,
          51.50219
        ]
      }
    },
    {
      "type": "Feature",
      "properties": {
        "marker-color": "#DC4C3F",
        "name": "A23 Streatham Hill/Ster",
        "online": false,
        "public": true,
        "marker-symbol": ""
      },
      "geometry": {
        "type": "Point",
        "coordinates": [
          -0.12675676,
          51.4382
        ]
      }
    },
    {
      "type": "Feature",
      "properties": {
        "marker-color": "#DC4C3F",
        "name": "LibertyHall Camera",
        "online": false,
        "public": true,
        "marker-symbol": ""
      },
      "geometry": {
        "type": "Point",
        "coordinates": [
          0.0,
          0.0
        ]
      }
    },
    {
      "type": "Feature",
      "properties": {
        "marker-color": "#DC4C3F",
        "name": "Gardiner St",
        "online": false,
        "public": true,
        "marker-symbol": ""
      },
      "geometry": {
        "type": "Point",
        "coordinates": [
          -6.591796875,
          53.48804553605614
        ]
      }
    },
    {
      "type": "Feature",
      "properties": {
        "marker-color": "#DC4C3F",
        "name": "A205 / Catford Hil",
        "online": false,
        "public": true,
        "marker-symbol": ""
      },
      "geometry": {
        "type": "Point",
        "coordinates": [
          -0.028571708,
          51.443165
        ]
      }
    },
    {
      "type": "Feature",
      "properties": {
        "marker-color": "#DC4C3F",
        "name": "Kidbrooke Park R",
        "online": false,
        "public": true,
        "marker-symbol": ""
      },
      "geometry": {
        "type": "Point",
        "coordinates": [
          0.026212595,
          51.45911
        ]
      }
    },
    {
      "type": "Feature",
      "properties": {
        "marker-color": "#DC4C3F",
        "name": "Barking Rd/Prince Regen",
        "online": false,
        "public": true,
        "marker-symbol": ""
      },
      "geometry": {
        "type": "Point",
        "coordinates": [
          0.029148925,
          51.525932
        ]
      }
    },
    {
      "type": "Feature",
      "properties": {
        "marker-color": "#DC4C3F",
        "name": "Southwark St/Thrale S",
        "online": false,
        "public": true,
        "marker-symbol": ""
      },
      "geometry": {
        "type": "Point",
        "coordinates": [
          -0.093553625,
          51.504734
        ]
      }
    },
    {
      "type": "Feature",
      "properties": {
        "marker-color": "#DC4C3F",
        "name": "A205 Upper R&#039;mond",
        "online": false,
        "public": true,
        "marker-symbol": ""
      },
      "geometry": {
        "type": "Point",
        "coordinates": [
          -0.2733979,
          51.464256
        ]
      }
    },
    {
      "type": "Feature",
      "properties": {
        "marker-color": "#DC4C3F",
        "name": "Uxbridge Road/Greenford",
        "online": false,
        "public": true,
        "marker-symbol": ""
      },
      "geometry": {
        "type": "Point",
        "coordinates": [
          -0.3552527,
          51.50956
        ]
      }
    },
    {
      "type": "Feature",
      "properties": {
        "marker-color": "#DC4C3F",
        "name": "A12 Wansbeck Roa",
        "online": false,
        "public": true,
        "marker-symbol": ""
      },
      "geometry": {
        "type": "Point",
        "coordinates": [
          -0.026917046,
          51.541912
        ]
      }
    },
    {
      "type": "Feature",
      "properties": {
        "marker-color": "#DC4C3F",
        "name": "A10 North of Lee Street",
        "online": false,
        "public": true,
        "marker-symbol": ""
      },
      "geometry": {
        "type": "Point",
        "coordinates": [
          -0.076855004,
          51.538563
        ]
      }
    },
    {
      "type": "Feature",
      "properties": {
        "marker-color": "#DC4C3F",
        "name": "Thurlow Park Road/Croxt",
        "online": false,
        "public": true,
        "marker-symbol": ""
      },
      "geometry": {
        "type": "Point",
        "coordinates": [
          -0.092676826,
          51.441162
        ]
      }
    },
    {
      "type": "Feature",
      "properties": {
        "marker-color": "#DC4C3F",
        "name": "A3 Clapham High St/Aris",
        "online": false,
        "public": true,
        "marker-symbol": ""
      },
      "geometry": {
        "type": "Point",
        "coordinates": [
          -0.13143021,
          51.464355
        ]
      }
    },
    {
      "type": "Feature",
      "properties": {
        "marker-color": "#DC4C3F",
        "name": "Sterling Way Slip/Victo",
        "online": false,
        "public": true,
        "marker-symbol": ""
      },
      "geometry": {
        "type": "Point",
        "coordinates": [
          -0.06815583,
          51.614548
        ]
      }
    },
    {
      "type": "Feature",
      "properties": {
        "marker-color": "#DC4C3F",
        "name": "A10 Stamford Hill/Lampa",
        "online": false,
        "public": true,
        "marker-symbol": ""
      },
      "geometry": {
        "type": "Point",
        "coordinates": [
          -0.07286077,
          51.566887
        ]
      }
    },
    {
      "type": "Feature",
      "properties": {
        "marker-color": "#DC4C3F",
        "name": "A406 Angel Road Eas",
        "online": false,
        "public": true,
        "marker-symbol": ""
      },
      "geometry": {
        "type": "Point",
        "coordinates": [
          -0.047566786,
          51.61132
        ]
      }
    },
    {
      "type": "Feature",
      "properties": {
        "marker-color": "#DC4C3F",
        "name": "Court Rd/Sidcup R",
        "online": false,
        "public": true,
        "marker-symbol": ""
      },
      "geometry": {
        "type": "Point",
        "coordinates": [
          0.050074738,
          51.439075
        ]
      }
    },
    {
      "type": "Feature",
      "properties": {
        "marker-color": "#DC4C3F",
        "name": "A406 CROOKED BILLE",
        "online": false,
        "public": true,
        "marker-symbol": ""
      },
      "geometry": {
        "type": "Point",
        "coordinates": [
          -0.016627861,
          51.60075
        ]
      }
    },
    {
      "type": "Feature",
      "properties": {
        "marker-color": "#DC4C3F",
        "name": "A23 Streatham H Rd/King",
        "online": false,
        "public": true,
        "marker-symbol": ""
      },
      "geometry": {
        "type": "Point",
        "coordinates": [
          -0.1284529,
          51.434372
        ]
      }
    },
    {
      "type": "Feature",
      "properties": {
        "marker-color": "#DC4C3F",
        "name": "Leman St / Prescot S",
        "online": false,
        "public": true,
        "marker-symbol": ""
      },
      "geometry": {
        "type": "Point",
        "coordinates": [
          -0.06926882,
          51.51201
        ]
      }
    },
    {
      "type": "Feature",
      "properties": {
        "marker-color": "#DC4C3F",
        "name": "A10 North of Waterson St",
        "online": false,
        "public": true,
        "marker-symbol": ""
      },
      "geometry": {
        "type": "Point",
        "coordinates": [
          -0.07773605,
          51.528946
        ]
      }
    },
    {
      "type": "Feature",
      "properties": {
        "marker-color": "#DC4C3F",
        "name": "Evelyn Street / Bestwoo",
        "online": false,
        "public": true,
        "marker-symbol": ""
      },
      "geometry": {
        "type": "Point",
        "coordinates": [
          -0.042283077,
          51.48998
        ]
      }
    },
    {
      "type": "Feature",
      "properties": {
        "marker-color": "#DC4C3F",
        "name": "Thornton Rd/Broughton R",
        "online": false,
        "public": true,
        "marker-symbol": ""
      },
      "geometry": {
        "type": "Point",
        "coordinates": [
          -0.1179794,
          51.391644
        ]
      }
    },
    {
      "type": "Feature",
      "properties": {
        "marker-color": "#DC4C3F",
        "name": "A3 Kingston Bp/Burlingt",
        "online": false,
        "public": true,
        "marker-symbol": ""
      },
      "geometry": {
        "type": "Point",
        "coordinates": [
          -0.24354583,
          51.399582
        ]
      }
    },
    {
      "type": "Feature",
      "properties": {
        "marker-color": "#DC4C3F",
        "name": "Commercial St/Brushfiel",
        "online": false,
        "public": true,
        "marker-symbol": ""
      },
      "geometry": {
        "type": "Point",
        "coordinates": [
          -0.07464378,
          51.5192
        ]
      }
    },
    {
      "type": "Feature",
      "properties": {
        "marker-color": "#DC4C3F",
        "name": "A2 Black Princ",
        "online": false,
        "public": true,
        "marker-symbol": ""
      },
      "geometry": {
        "type": "Point",
        "coordinates": [
          0.1524963,
          51.448193
        ]
      }
    },
    {
      "type": "Feature",
      "properties": {
        "marker-color": "#DC4C3F",
        "name": "Kentish Way N of Masons",
        "online": false,
        "public": true,
        "marker-symbol": ""
      },
      "geometry": {
        "type": "Point",
        "coordinates": [
          0.02036078,
          51.39894
        ]
      }
    },
    {
      "type": "Feature",
      "properties": {
        "marker-color": "#DC4C3F",
        "name": "New Kent Rd / Balfour S",
        "online": false,
        "public": true,
        "marker-symbol": ""
      },
      "geometry": {
        "type": "Point",
        "coordinates": [
          -0.091592655,
          51.494072
        ]
      }
    },
    {
      "type": "Feature",
      "properties": {
        "marker-color": "#DC4C3F",
        "name": "East Cross Route/Tredeg",
        "online": false,
        "public": true,
        "marker-symbol": ""
      },
      "geometry": {
        "type": "Point",
        "coordinates": [
          -0.022561533,
          51.533604
        ]
      }
    },
    {
      "type": "Feature",
      "properties": {
        "marker-color": "#DC4C3F",
        "name": "Harleyford St/Ken Pk R",
        "online": false,
        "public": true,
        "marker-symbol": ""
      },
      "geometry": {
        "type": "Point",
        "coordinates": [
          -0.11263742,
          51.482273
        ]
      }
    },
    {
      "type": "Feature",
      "properties": {
        "marker-color": "#DC4C3F",
        "name": "A23 Streatham H Rd/Mitc",
        "online": false,
        "public": true,
        "marker-symbol": ""
      },
      "geometry": {
        "type": "Point",
        "coordinates": [
          -0.13100629,
          51.429268
        ]
      }
    },
    {
      "type": "Feature",
      "properties": {
        "marker-color": "#DC4C3F",
        "name": "Parkway/Cranford High S",
        "online": false,
        "public": true,
        "marker-symbol": ""
      },
      "geometry": {
        "type": "Point",
        "coordinates": [
          -0.40772492,
          51.48382
        ]
      }
    },
    {
      "type": "Feature",
      "properties": {
        "marker-color": "#DC4C3F",
        "name": "Baker St/S of Park R",
        "online": false,
        "public": true,
        "marker-symbol": ""
      },
      "geometry": {
        "type": "Point",
        "coordinates": [
          -0.15810949,
          51.523624
        ]
      }
    },
    {
      "type": "Feature",
      "properties": {
        "marker-color": "#DC4C3F",
        "name": "A21 Bromley Rd/Callande",
        "online": false,
        "public": true,
        "marker-symbol": ""
      },
      "geometry": {
        "type": "Point",
        "coordinates": [
          -0.017802913,
          51.43497
        ]
      }
    },
    {
      "type": "Feature",
      "properties": {
        "marker-color": "#DC4C3F",
        "name": "A3 Clapham Rd/Crewdson",
        "online": false,
        "public": true,
        "marker-symbol": ""
      },
      "geometry": {
        "type": "Point",
        "coordinates": [
          -0.11531128,
          51.47925
        ]
      }
    },
    {
      "type": "Feature",
      "properties": {
        "marker-color": "#DC4C3F",
        "name": "A12 Dyers Hill W 3793",
        "online": false,
        "public": true,
        "marker-symbol": ""
      },
      "geometry": {
        "type": "Point",
        "coordinates": [
          0.001855946,
          51.56328
        ]
      }
    },
    {
      "type": "Feature",
      "properties": {
        "marker-color": "#DC4C3F",
        "name": "HOLLYBUSH HILL G&#039;M",
        "online": false,
        "public": true,
        "marker-symbol": ""
      },
      "geometry": {
        "type": "Point",
        "coordinates": [
          0.0164077,
          51.572968
        ]
      }
    },
    {
      "type": "Feature",
      "properties": {
        "marker-color": "#DC4C3F",
        "name": "Limehouse Tunnel/The Hi",
        "online": false,
        "public": true,
        "marker-symbol": ""
      },
      "geometry": {
        "type": "Point",
        "coordinates": [
          -0.0405296,
          51.51071
        ]
      }
    },
    {
      "type": "Feature",
      "properties": {
        "marker-color": "#DC4C3F",
        "name": "Piccadilly/Whitehorse S",
        "online": false,
        "public": true,
        "marker-symbol": ""
      },
      "geometry": {
        "type": "Point",
        "coordinates": [
          -0.14558598,
          51.505444
        ]
      }
    },
    {
      "type": "Feature",
      "properties": {
        "marker-color": "#DC4C3F",
        "name": "A41 Finchley Rd/Boundar",
        "online": false,
        "public": true,
        "marker-symbol": ""
      },
      "geometry": {
        "type": "Point",
        "coordinates": [
          -0.17591739,
          51.53973
        ]
      }
    },
    {
      "type": "Feature",
      "properties": {
        "marker-color": "#DC4C3F",
        "name": "A23/Purley Cros",
        "online": false,
        "public": true,
        "marker-symbol": ""
      },
      "geometry": {
        "type": "Point",
        "coordinates": [
          -0.117242634,
          51.338142
        ]
      }
    },
    {
      "type": "Feature",
      "properties": {
        "marker-color": "#DC4C3F",
        "name": "A102 Tunnel House Nort",
        "online": false,
        "public": true,
        "marker-symbol": ""
      },
      "geometry": {
        "type": "Point",
        "coordinates": [
          0.0020026118,
          51.496666
        ]
      }
    },
    {
      "type": "Feature",
      "properties": {
        "marker-color": "#DC4C3F",
        "name": "Woolich Rd/Warspite R",
        "online": false,
        "public": true,
        "marker-symbol": ""
      },
      "geometry": {
        "type": "Point",
        "coordinates": [
          0.045397226,
          51.492493
        ]
      }
    },
    {
      "type": "Feature",
      "properties": {
        "marker-color": "#DC4C3F",
        "name": "Baker St/Marylebone R",
        "online": false,
        "public": true,
        "marker-symbol": ""
      },
      "geometry": {
        "type": "Point",
        "coordinates": [
          -0.15767553,
          51.522232
        ]
      }
    },
    {
      "type": "Feature",
      "properties": {
        "marker-color": "#DC4C3F",
        "name": "Lambeth Bridge/Albert E",
        "online": false,
        "public": true,
        "marker-symbol": ""
      },
      "geometry": {
        "type": "Point",
        "coordinates": [
          -0.121062666,
          51.49384
        ]
      }
    },
    {
      "type": "Feature",
      "properties": {
        "marker-color": "#DC4C3F",
        "name": "Archway Rd / Causton R",
        "online": false,
        "public": true,
        "marker-symbol": ""
      },
      "geometry": {
        "type": "Point",
        "coordinates": [
          -0.1412855,
          51.573555
        ]
      }
    },
    {
      "type": "Feature",
      "properties": {
        "marker-color": "#DC4C3F",
        "name": "A5 Cricklewood Broadwa",
        "online": false,
        "public": true,
        "marker-symbol": ""
      },
      "geometry": {
        "type": "Point",
        "coordinates": [
          -0.21557038,
          51.55676
        ]
      }
    },
    {
      "type": "Feature",
      "properties": {
        "marker-color": "#DC4C3F",
        "name": "A20 Sidcup Bypass/Seven",
        "online": false,
        "public": true,
        "marker-symbol": ""
      },
      "geometry": {
        "type": "Point",
        "coordinates": [
          0.112233706,
          51.413456
        ]
      }
    },
    {
      "type": "Feature",
      "properties": {
        "marker-color": "#DC4C3F",
        "name": "Stoke Newington Rd/Ever",
        "online": false,
        "public": true,
        "marker-symbol": ""
      },
      "geometry": {
        "type": "Point",
        "coordinates": [
          -0.07465916,
          51.557106
        ]
      }
    },
    {
      "type": "Feature",
      "properties": {
        "marker-color": "#DC4C3F",
        "name": "Stafford Rd/Epsom R",
        "online": false,
        "public": true,
        "marker-symbol": ""
      },
      "geometry": {
        "type": "Point",
        "coordinates": [
          -0.116078414,
          51.367233
        ]
      }
    },
    {
      "type": "Feature",
      "properties": {
        "marker-color": "#DC4C3F",
        "name": "West Hill/Portinscale R",
        "online": false,
        "public": true,
        "marker-symbol": ""
      },
      "geometry": {
        "type": "Point",
        "coordinates": [
          -0.20827478,
          51.45491
        ]
      }
    },
    {
      "type": "Feature",
      "properties": {
        "marker-color": "#DC4C3F",
        "name": "Upper Richmond Rd/Colin",
        "online": false,
        "public": true,
        "marker-symbol": ""
      },
      "geometry": {
        "type": "Point",
        "coordinates": [
          -0.22988054,
          51.46344
        ]
      }
    },
    {
      "type": "Feature",
      "properties": {
        "marker-color": "#DC4C3F",
        "name": "High St/Sherwood Way W",
        "online": false,
        "public": true,
        "marker-symbol": ""
      },
      "geometry": {
        "type": "Point",
        "coordinates": [
          -0.017685989,
          51.376167
        ]
      }
    },
    {
      "type": "Feature",
      "properties": {
        "marker-color": "#DC4C3F",
        "name": "Bruce Grove",
        "online": false,
        "public": true,
        "marker-symbol": ""
      },
      "geometry": {
        "type": "Point",
        "coordinates": [
          -0.06943309,
          51.59398
        ]
      }
    },
    {
      "type": "Feature",
      "properties": {
        "marker-color": "#DC4C3F",
        "name": "A3 Hook Rise/A243 Hook",
        "online": false,
        "public": true,
        "marker-symbol": ""
      },
      "geometry": {
        "type": "Point",
        "coordinates": [
          -0.30358946,
          51.375233
        ]
      }
    },
    {
      "type": "Feature",
      "properties": {
        "marker-color": "#DC4C3F",
        "name": "A3 Clapham Rd/Albert Sq",
        "online": false,
        "public": true,
        "marker-symbol": ""
      },
      "geometry": {
        "type": "Point",
        "coordinates": [
          -0.11869585,
          51.476093
        ]
      }
    },
    {
      "type": "Feature",
      "properties": {
        "marker-color": "#DC4C3F",
        "name": "Camberwell Ch St/Camber",
        "online": false,
        "public": true,
        "marker-symbol": ""
      },
      "geometry": {
        "type": "Point",
        "coordinates": [
          -0.09223382,
          51.474228
        ]
      }
    },
    {
      "type": "Feature",
      "properties": {
        "marker-color": "#DC4C3F",
        "name": "Kingsway/High Holbor",
        "online": false,
        "public": true,
        "marker-symbol": ""
      },
      "geometry": {
        "type": "Point",
        "coordinates": [
          -0.12055771,
          51.51767
        ]
      }
    },
    {
      "type": "Feature",
      "properties": {
        "marker-color": "#DC4C3F",
        "name": "Balham High Rd/Ramsden",
        "online": false,
        "public": true,
        "marker-symbol": ""
      },
      "geometry": {
        "type": "Point",
        "coordinates": [
          -0.15178467,
          51.444813
        ]
      }
    },
    {
      "type": "Feature",
      "properties": {
        "marker-color": "#DC4C3F",
        "name": "Bromley Rd/Oakridge L",
        "online": false,
        "public": true,
        "marker-symbol": ""
      },
      "geometry": {
        "type": "Point",
        "coordinates": [
          -0.004539327,
          51.425026
        ]
      }
    },
    {
      "type": "Feature",
      "properties": {
        "marker-color": "#DC4C3F",
        "name": "Borough High St/Southwa",
        "online": false,
        "public": true,
        "marker-symbol": ""
      },
      "geometry": {
        "type": "Point",
        "coordinates": [
          -0.09007918,
          51.504776
        ]
      }
    },
    {
      "type": "Feature",
      "properties": {
        "marker-color": "#DC4C3F",
        "name": "A406 WATERWORKS RD",
        "online": false,
        "public": true,
        "marker-symbol": ""
      },
      "geometry": {
        "type": "Point",
        "coordinates": [
          0.010721201,
          51.595184
        ]
      }
    },
    {
      "type": "Feature",
      "properties": {
        "marker-color": "#DC4C3F",
        "name": "Lambeth Plc Rd/Royal S",
        "online": false,
        "public": true,
        "marker-symbol": ""
      },
      "geometry": {
        "type": "Point",
        "coordinates": [
          -0.117470354,
          51.498512
        ]
      }
    },
    {
      "type": "Feature",
      "properties": {
        "marker-color": "#DC4C3F",
        "name": "Kensington Rd/Exhibitio",
        "online": false,
        "public": true,
        "marker-symbol": ""
      },
      "geometry": {
        "type": "Point",
        "coordinates": [
          -0.17482759,
          51.50172
        ]
      }
    },
    {
      "type": "Feature",
      "properties": {
        "marker-color": "#DC4C3F",
        "name": "A406 Neasden Lan",
        "online": false,
        "public": true,
        "marker-symbol": ""
      },
      "geometry": {
        "type": "Point",
        "coordinates": [
          -0.25380144,
          51.559692
        ]
      }
    },
    {
      "type": "Feature",
      "properties": {
        "marker-color": "#DC4C3F",
        "name": "A5 Edgware Rd/Cuthbert",
        "online": false,
        "public": true,
        "marker-symbol": ""
      },
      "geometry": {
        "type": "Point",
        "coordinates": [
          -0.17437696,
          51.523087
        ]
      }
    },
    {
      "type": "Feature",
      "properties": {
        "marker-color": "#DC4C3F",
        "name": "A21 Bromley Rd/Bellingh",
        "online": false,
        "public": true,
        "marker-symbol": ""
      },
      "geometry": {
        "type": "Point",
        "coordinates": [
          -0.01779677,
          51.433453
        ]
      }
    },
    {
      "type": "Feature",
      "properties": {
        "marker-color": "#DC4C3F",
        "name": "Northumberland Ave/Vict",
        "online": false,
        "public": true,
        "marker-symbol": ""
      },
      "geometry": {
        "type": "Point",
        "coordinates": [
          -0.122672714,
          51.506546
        ]
      }
    },
    {
      "type": "Feature",
      "properties": {
        "marker-color": "#DC4C3F",
        "name": "A4 Bath Rd/Henlys R&#03",
        "online": false,
        "public": true,
        "marker-symbol": ""
      },
      "geometry": {
        "type": "Point",
        "coordinates": [
          -0.394408,
          51.47506
        ]
      }
    },
    {
      "type": "Feature",
      "properties": {
        "marker-color": "#DC4C3F",
        "name": "A1 Barnet Wy/A41 Edgwar",
        "online": false,
        "public": true,
        "marker-symbol": ""
      },
      "geometry": {
        "type": "Point",
        "coordinates": [
          -0.25478393,
          51.621807
        ]
      }
    },
    {
      "type": "Feature",
      "properties": {
        "marker-color": "#DC4C3F",
        "name": "A406 Staples Corne",
        "online": false,
        "public": true,
        "marker-symbol": ""
      },
      "geometry": {
        "type": "Point",
        "coordinates": [
          -0.231885,
          51.5713
        ]
      }
    },
    {
      "type": "Feature",
      "properties": {
        "marker-color": "#DC4C3F",
        "name": "A3220 West Cross Rout",
        "online": false,
        "public": true,
        "marker-symbol": ""
      },
      "geometry": {
        "type": "Point",
        "coordinates": [
          -0.2199319,
          51.51154
        ]
      }
    },
    {
      "type": "Feature",
      "properties": {
        "marker-color": "#DC4C3F",
        "name": "Finchley Road / West En",
        "online": false,
        "public": true,
        "marker-symbol": ""
      },
      "geometry": {
        "type": "Point",
        "coordinates": [
          -0.18880837,
          51.552826
        ]
      }
    },
    {
      "type": "Feature",
      "properties": {
        "marker-color": "#DC4C3F",
        "name": "Elephant &amp; Castle/W",
        "online": false,
        "public": true,
        "marker-symbol": ""
      },
      "geometry": {
        "type": "Point",
        "coordinates": [
          -0.10049555,
          51.49338
        ]
      }
    },
    {
      "type": "Feature",
      "properties": {
        "marker-color": "#DC4C3F",
        "name": "A205 Upper R&#039;mond",
        "online": false,
        "public": true,
        "marker-symbol": ""
      },
      "geometry": {
        "type": "Point",
        "coordinates": [
          -0.2621255,
          51.46502
        ]
      }
    },
    {
      "type": "Feature",
      "properties": {
        "marker-color": "#DC4C3F",
        "name": "A312 Hampton Rd York Wa",
        "online": false,
        "public": true,
        "marker-symbol": ""
      },
      "geometry": {
        "type": "Point",
        "coordinates": [
          -0.38064918,
          51.437435
        ]
      }
    },
    {
      "type": "Feature",
      "properties": {
        "marker-color": "#DC4C3F",
        "name": "Upper Richmond Rd/Dyers",
        "online": false,
        "public": true,
        "marker-symbol": ""
      },
      "geometry": {
        "type": "Point",
        "coordinates": [
          -0.23327482,
          51.463894
        ]
      }
    },
    {
      "type": "Feature",
      "properties": {
        "marker-color": "#DC4C3F",
        "name": "Balham High Rd/Balham P",
        "online": false,
        "public": true,
        "marker-symbol": ""
      },
      "geometry": {
        "type": "Point",
        "coordinates": [
          -0.15409192,
          51.4422
        ]
      }
    },
    {
      "type": "Feature",
      "properties": {
        "marker-color": "#DC4C3F",
        "name": "Whitechapel Rd/Fieldgat",
        "online": false,
        "public": true,
        "marker-symbol": ""
      },
      "geometry": {
        "type": "Point",
        "coordinates": [
          -0.06590766,
          51.51753
        ]
      }
    },
    {
      "type": "Feature",
      "properties": {
        "marker-color": "#DC4C3F",
        "name": "A4 Cromwell Rd/Gloucest",
        "online": false,
        "public": true,
        "marker-symbol": ""
      },
      "geometry": {
        "type": "Point",
        "coordinates": [
          -0.1825388,
          51.495132
        ]
      }
    },
    {
      "type": "Feature",
      "properties": {
        "marker-color": "#DC4C3F",
        "name": "Gotland",
        "online": false,
        "public": true,
        "marker-symbol": ""
      },
      "geometry": {
        "type": "Point",
        "coordinates": [
          18.0506452,
          59.33327180000001
        ]
      }
    },
    {
      "type": "Feature",
      "properties": {
        "marker-color": "#DC4C3F",
        "name": "Upper Tooting Rd/Ansell",
        "online": false,
        "public": true,
        "marker-symbol": ""
      },
      "geometry": {
        "type": "Point",
        "coordinates": [
          -0.16385405,
          51.43272
        ]
      }
    },
    {
      "type": "Feature",
      "properties": {
        "marker-color": "#DC4C3F",
        "name": "Lee High Rd/Old R",
        "online": false,
        "public": true,
        "marker-symbol": ""
      },
      "geometry": {
        "type": "Point",
        "coordinates": [
          0.0028692856,
          51.458588
        ]
      }
    },
    {
      "type": "Feature",
      "properties": {
        "marker-color": "#DC4C3F",
        "name": "Rushy Green/Rosenthal R",
        "online": false,
        "public": true,
        "marker-symbol": ""
      },
      "geometry": {
        "type": "Point",
        "coordinates": [
          -0.017217983,
          51.44881
        ]
      }
    },
    {
      "type": "Feature",
      "properties": {
        "marker-color": "#DC4C3F",
        "name": "A2 New Cross Rd/Nettlet",
        "online": false,
        "public": true,
        "marker-symbol": ""
      },
      "geometry": {
        "type": "Point",
        "coordinates": [
          -0.043282032,
          51.474384
        ]
      }
    },
    {
      "type": "Feature",
      "properties": {
        "marker-color": "#DC4C3F",
        "name": "Swiss Cottage/Finchley",
        "online": false,
        "public": true,
        "marker-symbol": ""
      },
      "geometry": {
        "type": "Point",
        "coordinates": [
          -0.17502892,
          51.543915
        ]
      }
    },
    {
      "type": "Feature",
      "properties": {
        "marker-color": "#DC4C3F",
        "name": "Ealing Rd/Bridgewater R",
        "online": false,
        "public": true,
        "marker-symbol": ""
      },
      "geometry": {
        "type": "Point",
        "coordinates": [
          -0.30039588,
          51.53965
        ]
      }
    },
    {
      "type": "Feature",
      "properties": {
        "marker-color": "#DC4C3F",
        "name": "Chelsea Bridge/Chelsea",
        "online": false,
        "public": true,
        "marker-symbol": ""
      },
      "geometry": {
        "type": "Point",
        "coordinates": [
          -0.14971034,
          51.485798
        ]
      }
    },
    {
      "type": "Feature",
      "properties": {
        "marker-color": "#DC4C3F",
        "name": "A205 north of Broad Wal",
        "online": false,
        "public": true,
        "marker-symbol": ""
      },
      "geometry": {
        "type": "Point",
        "coordinates": [
          0.054389417,
          51.469482
        ]
      }
    },
    {
      "type": "Feature",
      "properties": {
        "marker-color": "#DC4C3F",
        "name": "A406 Holiday In",
        "online": false,
        "public": true,
        "marker-symbol": ""
      },
      "geometry": {
        "type": "Point",
        "coordinates": [
          -0.22271195,
          51.573017
        ]
      }
    },
    {
      "type": "Feature",
      "properties": {
        "marker-color": "#DC4C3F",
        "name": "London Rd/Thomas Doyle",
        "online": false,
        "public": true,
        "marker-symbol": ""
      },
      "geometry": {
        "type": "Point",
        "coordinates": [
          -0.10376193,
          51.497986
        ]
      }
    },
    {
      "type": "Feature",
      "properties": {
        "marker-color": "#DC4C3F",
        "name": "Savannah",
        "online": false,
        "public": true,
        "marker-symbol": ""
      },
      "geometry": {
        "type": "Point",
        "coordinates": [
          37.797302,
          -2.551525
        ]
      }
    },
    {
      "type": "Feature",
      "properties": {
        "marker-color": "#DC4C3F",
        "name": "A4 Bath Rd/The Parkwa",
        "online": false,
        "public": true,
        "marker-symbol": ""
      },
      "geometry": {
        "type": "Point",
        "coordinates": [
          -0.40347418,
          51.47769
        ]
      }
    },
    {
      "type": "Feature",
      "properties": {
        "marker-color": "#DC4C3F",
        "name": "A102 Woolwich Road (S",
        "online": false,
        "public": true,
        "marker-symbol": ""
      },
      "geometry": {
        "type": "Point",
        "coordinates": [
          0.021658419,
          51.47984
        ]
      }
    },
    {
      "type": "Feature",
      "properties": {
        "marker-color": "#DC4C3F",
        "name": "A41 Finchley Rd/115 Swi",
        "online": false,
        "public": true,
        "marker-symbol": ""
      },
      "geometry": {
        "type": "Point",
        "coordinates": [
          -0.17518772,
          51.54283
        ]
      }
    },
    {
      "type": "Feature",
      "properties": {
        "marker-color": "#DC4C3F",
        "name": "Surfcam",
        "online": false,
        "public": true,
        "marker-symbol": ""
      },
      "geometry": {
        "type": "Point",
        "coordinates": [
          0.0,
          0.0
        ]
      }
    },
    {
      "type": "Feature",
      "properties": {
        "marker-color": "#DC4C3F",
        "name": "Montfichet Rd/Hitchcock",
        "online": false,
        "public": true,
        "marker-symbol": ""
      },
      "geometry": {
        "type": "Point",
        "coordinates": [
          -0.0035361636,
          51.54464
        ]
      }
    },
    {
      "type": "Feature",
      "properties": {
        "marker-color": "#DC4C3F",
        "name": "Lea Bridge Rd/Markhouse",
        "online": false,
        "public": true,
        "marker-symbol": ""
      },
      "geometry": {
        "type": "Point",
        "coordinates": [
          -0.025273066,
          51.57022
        ]
      }
    },
    {
      "type": "Feature",
      "properties": {
        "marker-color": "#DC4C3F",
        "name": "Balham High Rd/Caistor",
        "online": false,
        "public": true,
        "marker-symbol": ""
      },
      "geometry": {
        "type": "Point",
        "coordinates": [
          -0.14943032,
          51.446808
        ]
      }
    },
    {
      "type": "Feature",
      "properties": {
        "marker-color": "#DC4C3F",
        "name": "Kings X Rd / Swinton S",
        "online": false,
        "public": true,
        "marker-symbol": ""
      },
      "geometry": {
        "type": "Point",
        "coordinates": [
          -0.11571996,
          51.52942
        ]
      }
    },
    {
      "type": "Feature",
      "properties": {
        "marker-color": "#DC4C3F",
        "name": "Kingsland Rd/Hackney Rd",
        "online": false,
        "public": true,
        "marker-symbol": ""
      },
      "geometry": {
        "type": "Point",
        "coordinates": [
          -0.07797365,
          51.527412
        ]
      }
    },
    {
      "type": "Feature",
      "properties": {
        "marker-color": "#DC4C3F",
        "name": "Eastbourne Te/Bishops B",
        "online": false,
        "public": true,
        "marker-symbol": ""
      },
      "geometry": {
        "type": "Point",
        "coordinates": [
          -0.18026292,
          51.51791
        ]
      }
    },
    {
      "type": "Feature",
      "properties": {
        "marker-color": "#DC4C3F",
        "name": "Upper Richmond Rd/Raven",
        "online": false,
        "public": true,
        "marker-symbol": ""
      },
      "geometry": {
        "type": "Point",
        "coordinates": [
          -0.22030964,
          51.46152
        ]
      }
    },
    {
      "type": "Feature",
      "properties": {
        "marker-color": "#DC4C3F",
        "name": "A406 Cooks Ferry R/",
        "online": false,
        "public": true,
        "marker-symbol": ""
      },
      "geometry": {
        "type": "Point",
        "coordinates": [
          -0.0368983,
          51.613213
        ]
      }
    },
    {
      "type": "Feature",
      "properties": {
        "marker-color": "#DC4C3F",
        "name": "A102 Woolwich Road (N",
        "online": false,
        "public": true,
        "marker-symbol": ""
      },
      "geometry": {
        "type": "Point",
        "coordinates": [
          0.01446818,
          51.488575
        ]
      }
    },
    {
      "type": "Feature",
      "properties": {
        "marker-color": "#DC4C3F",
        "name": "Watling St/Gravel Hil",
        "online": false,
        "public": true,
        "marker-symbol": ""
      },
      "geometry": {
        "type": "Point",
        "coordinates": [
          0.15300435,
          51.45507
        ]
      }
    },
    {
      "type": "Feature",
      "properties": {
        "marker-color": "#DC4C3F",
        "name": "A23 Brixton Rd/Stockwel",
        "online": false,
        "public": true,
        "marker-symbol": ""
      },
      "geometry": {
        "type": "Point",
        "coordinates": [
          -0.11407282,
          51.465282
        ]
      }
    },
    {
      "type": "Feature",
      "properties": {
        "marker-color": "#DC4C3F",
        "name": "A20 Sidcup Rd/Coyler Cl",
        "online": false,
        "public": true,
        "marker-symbol": ""
      },
      "geometry": {
        "type": "Point",
        "coordinates": [
          0.063076235,
          51.435104
        ]
      }
    },
    {
      "type": "Feature",
      "properties": {
        "marker-color": "#DC4C3F",
        "name": "Seven Sisters Rd/St An",
        "online": false,
        "public": true,
        "marker-symbol": ""
      },
      "geometry": {
        "type": "Point",
        "coordinates": [
          -0.07977626,
          51.579803
        ]
      }
    },
    {
      "type": "Feature",
      "properties": {
        "marker-color": "#DC4C3F",
        "name": "A10 North of Northwold Rd",
        "online": false,
        "public": true,
        "marker-symbol": ""
      },
      "geometry": {
        "type": "Point",
        "coordinates": [
          -0.07324608,
          51.563572
        ]
      }
    },
    {
      "type": "Feature",
      "properties": {
        "marker-color": "#DC4C3F",
        "name": "A20 Lee High Rd/Belmont",
        "online": false,
        "public": true,
        "marker-symbol": ""
      },
      "geometry": {
        "type": "Point",
        "coordinates": [
          -0.008897767,
          51.46241
        ]
      }
    },
    {
      "type": "Feature",
      "properties": {
        "marker-color": "#DC4C3F",
        "name": "Kennington Ova",
        "online": false,
        "public": true,
        "marker-symbol": ""
      },
      "geometry": {
        "type": "Point",
        "coordinates": [
          -0.11600559,
          51.48302
        ]
      }
    },
    {
      "type": "Feature",
      "properties": {
        "marker-color": "#DC4C3F",
        "name": "A10 Grt Cambridge Rd/De",
        "online": false,
        "public": true,
        "marker-symbol": ""
      },
      "geometry": {
        "type": "Point",
        "coordinates": [
          -0.08555785,
          51.60673
        ]
      }
    },
    {
      "type": "Feature",
      "properties": {
        "marker-color": "#DC4C3F",
        "name": "Deptford Broadway/Deptf",
        "online": false,
        "public": true,
        "marker-symbol": ""
      },
      "geometry": {
        "type": "Point",
        "coordinates": [
          -0.024217864,
          51.474686
        ]
      }
    },
    {
      "type": "Feature",
      "properties": {
        "marker-color": "#DC4C3F",
        "name": "Lwr Mortlake Rd/Manor C",
        "online": false,
        "public": true,
        "marker-symbol": ""
      },
      "geometry": {
        "type": "Point",
        "coordinates": [
          -0.28769368,
          51.467712
        ]
      }
    },
    {
      "type": "Feature",
      "properties": {
        "marker-color": "#DC4C3F",
        "name": "Finchley Rd/Frognal C",
        "online": false,
        "public": true,
        "marker-symbol": ""
      },
      "geometry": {
        "type": "Point",
        "coordinates": [
          -0.18096359,
          51.54843
        ]
      }
    },
    {
      "type": "Feature",
      "properties": {
        "marker-color": "#DC4C3F",
        "name": "A2 Blackheath Hill/Plum",
        "online": false,
        "public": true,
        "marker-symbol": ""
      },
      "geometry": {
        "type": "Point",
        "coordinates": [
          -0.014736166,
          51.472843
        ]
      }
    },
    {
      "type": "Feature",
      "properties": {
        "marker-color": "#DC4C3F",
        "name": "Balham High Rd/Chestnut",
        "online": false,
        "public": true,
        "marker-symbol": ""
      },
      "geometry": {
        "type": "Point",
        "coordinates": [
          -0.15259658,
          51.443596
        ]
      }
    },
    {
      "type": "Feature",
      "properties": {
        "marker-color": "#DC4C3F",
        "name": "Camberwell Ch St/Grove",
        "online": false,
        "public": true,
        "marker-symbol": ""
      },
      "geometry": {
        "type": "Point",
        "coordinates": [
          -0.090449326,
          51.473858
        ]
      }
    },
    {
      "type": "Feature",
      "properties": {
        "marker-color": "#DC4C3F",
        "name": "HIGH ROAD LEYTONSTONE/B",
        "online": false,
        "public": true,
        "marker-symbol": ""
      },
      "geometry": {
        "type": "Point",
        "coordinates": [
          0.015773462,
          51.571026
        ]
      }
    },
    {
      "type": "Feature",
      "properties": {
        "marker-color": "#DC4C3F",
        "name": "Delamare Rd/Broadwa",
        "online": false,
        "public": true,
        "marker-symbol": ""
      },
      "geometry": {
        "type": "Point",
        "coordinates": [
          -0.39110222,
          51.513348
        ]
      }
    },
    {
      "type": "Feature",
      "properties": {
        "marker-color": "#DC4C3F",
        "name": "Hyde Park Corner/Park L",
        "online": false,
        "public": true,
        "marker-symbol": ""
      },
      "geometry": {
        "type": "Point",
        "coordinates": [
          -0.15098847,
          51.503334
        ]
      }
    },
    {
      "type": "Feature",
      "properties": {
        "marker-color": "#DC4C3F",
        "name": "Commercial Rd/New R",
        "online": false,
        "public": true,
        "marker-symbol": ""
      },
      "geometry": {
        "type": "Point",
        "coordinates": [
          -0.06228891,
          51.51483
        ]
      }
    },
    {
      "type": "Feature",
      "properties": {
        "marker-color": "#DC4C3F",
        "name": "City Rd/Shepherdess Wal",
        "online": false,
        "public": true,
        "marker-symbol": ""
      },
      "geometry": {
        "type": "Point",
        "coordinates": [
          -0.092387974,
          51.5285
        ]
      }
    },
    {
      "type": "Feature",
      "properties": {
        "marker-color": "#DC4C3F",
        "name": "Oxford St/Orchard S",
        "online": false,
        "public": true,
        "marker-symbol": ""
      },
      "geometry": {
        "type": "Point",
        "coordinates": [
          -0.15408967,
          51.51395
        ]
      }
    },
    {
      "type": "Feature",
      "properties": {
        "marker-color": "#DC4C3F",
        "name": "Hanger Lane/Uxbridge R",
        "online": false,
        "public": true,
        "marker-symbol": ""
      },
      "geometry": {
        "type": "Point",
        "coordinates": [
          -0.29218593,
          51.511654
        ]
      }
    },
    {
      "type": "Feature",
      "properties": {
        "marker-color": "#DC4C3F",
        "name": "A12 Madeira Rd 3815",
        "online": false,
        "public": true,
        "marker-symbol": ""
      },
      "geometry": {
        "type": "Point",
        "coordinates": [
          0.00498669,
          51.565
        ]
      }
    },
    {
      "type": "Feature",
      "properties": {
        "marker-color": "#DC4C3F",
        "name": "Battersea Park Rd/Forfa",
        "online": false,
        "public": true,
        "marker-symbol": ""
      },
      "geometry": {
        "type": "Point",
        "coordinates": [
          -0.15453787,
          51.474678
        ]
      }
    },
    {
      "type": "Feature",
      "properties": {
        "marker-color": "#DC4C3F",
        "name": "M11 A406 Northbound 109",
        "online": false,
        "public": true,
        "marker-symbol": ""
      },
      "geometry": {
        "type": "Point",
        "coordinates": [
          -0.039696872,
          51.584507
        ]
      }
    },
    {
      "type": "Feature",
      "properties": {
        "marker-color": "#DC4C3F",
        "name": "Buckingham Palace Rd/Ea",
        "online": false,
        "public": true,
        "marker-symbol": ""
      },
      "geometry": {
        "type": "Point",
        "coordinates": [
          -0.14465384,
          51.497173
        ]
      }
    },
    {
      "type": "Feature",
      "properties": {
        "marker-color": "#DC4C3F",
        "name": "Victoria St/Buckingham",
        "online": false,
        "public": true,
        "marker-symbol": ""
      },
      "geometry": {
        "type": "Point",
        "coordinates": [
          -0.14379348,
          51.49672
        ]
      }
    },
    {
      "type": "Feature",
      "properties": {
        "marker-color": "#DC4C3F",
        "name": "A21 Bromley Rd/Penerley",
        "online": false,
        "public": true,
        "marker-symbol": ""
      },
      "geometry": {
        "type": "Point",
        "coordinates": [
          -0.020725816,
          51.44091
        ]
      }
    },
    {
      "type": "Feature",
      "properties": {
        "marker-color": "#DC4C3F",
        "name": "London Rd/Arragon R",
        "online": false,
        "public": true,
        "marker-symbol": ""
      },
      "geometry": {
        "type": "Point",
        "coordinates": [
          -0.33026406,
          51.449642
        ]
      }
    },
    {
      "type": "Feature",
      "properties": {
        "marker-color": "#DC4C3F",
        "name": "Jejuits",
        "online": false,
        "public": true,
        "marker-symbol": ""
      },
      "geometry": {
        "type": "Point",
        "coordinates": [
          0.0,
          0.0
        ]
      }
    },
    {
      "type": "Feature",
      "properties": {
        "marker-color": "#DC4C3F",
        "name": "Barking Rd/Green S",
        "online": false,
        "public": true,
        "marker-symbol": ""
      },
      "geometry": {
        "type": "Point",
        "coordinates": [
          0.03771857,
          51.53027
        ]
      }
    },
    {
      "type": "Feature",
      "properties": {
        "marker-color": "#DC4C3F",
        "name": "606 Aspen Way/East Indi",
        "online": false,
        "public": true,
        "marker-symbol": ""
      },
      "geometry": {
        "type": "Point",
        "coordinates": [
          -0.0038809006,
          51.50841
        ]
      }
    },
    {
      "type": "Feature",
      "properties": {
        "marker-color": "#DC4C3F",
        "name": "Brompton R",
        "online": false,
        "public": true,
        "marker-symbol": ""
      },
      "geometry": {
        "type": "Point",
        "coordinates": [
          -0.16227262,
          51.50078
        ]
      }
    },
    {
      "type": "Feature",
      "properties": {
        "marker-color": "#DC4C3F",
        "name": "A205 Upper R&#039;mond",
        "online": false,
        "public": true,
        "marker-symbol": ""
      },
      "geometry": {
        "type": "Point",
        "coordinates": [
          -0.24949479,
          51.465145
        ]
      }
    },
    {
      "type": "Feature",
      "properties": {
        "marker-color": "#DC4C3F",
        "name": "Bethnal Gr Rd/Satchwell",
        "online": false,
        "public": true,
        "marker-symbol": ""
      },
      "geometry": {
        "type": "Point",
        "coordinates": [
          -0.069054976,
          51.525925
        ]
      }
    },
    {
      "type": "Feature",
      "properties": {
        "marker-color": "#DC4C3F",
        "name": "A12 Temple MIlls 3672",
        "online": false,
        "public": true,
        "marker-symbol": ""
      },
      "geometry": {
        "type": "Point",
        "coordinates": [
          -0.008070127,
          51.554752
        ]
      }
    },
    {
      "type": "Feature",
      "properties": {
        "marker-color": "#DC4C3F",
        "name": "A406/Great North Wa",
        "online": false,
        "public": true,
        "marker-symbol": ""
      },
      "geometry": {
        "type": "Point",
        "coordinates": [
          -0.20658587,
          51.588593
        ]
      }
    },
    {
      "type": "Feature",
      "properties": {
        "marker-color": "#DC4C3F",
        "name": "East India Dock Rd/Chri",
        "online": false,
        "public": true,
        "marker-symbol": ""
      },
      "geometry": {
        "type": "Point",
        "coordinates": [
          -0.013989708,
          51.51124
        ]
      }
    },
    {
      "type": "Feature",
      "properties": {
        "marker-color": "#DC4C3F",
        "name": "Mesklies",
        "online": true,
        "public": true,
        "marker-symbol": ""
      },
      "geometry": {
        "type": "Point",
        "coordinates": [
          0.0,
          0.0
        ]
      }
    },
    {
      "type": "Feature",
      "properties": {
        "marker-color": "#DC4C3F",
        "name": "A3 Clapham Road/B221 Be",
        "online": false,
        "public": true,
        "marker-symbol": ""
      },
      "geometry": {
        "type": "Point",
        "coordinates": [
          -0.12966926,
          51.465523
        ]
      }
    },
    {
      "type": "Feature",
      "properties": {
        "marker-color": "#DC4C3F",
        "name": "Uxbridge Road/Browells",
        "online": false,
        "public": true,
        "marker-symbol": ""
      },
      "geometry": {
        "type": "Point",
        "coordinates": [
          -0.3997391,
          51.44533
        ]
      }
    },
    {
      "type": "Feature",
      "properties": {
        "marker-color": "#DC4C3F",
        "name": "Stonecot Hill/Hill To",
        "online": false,
        "public": true,
        "marker-symbol": ""
      },
      "geometry": {
        "type": "Point",
        "coordinates": [
          -0.21281914,
          51.384583
        ]
      }
    },
    {
      "type": "Feature",
      "properties": {
        "marker-color": "#DC4C3F",
        "name": "Shaftesbury Ave/High Ho",
        "online": false,
        "public": true,
        "marker-symbol": ""
      },
      "geometry": {
        "type": "Point",
        "coordinates": [
          -0.12611644,
          51.515682
        ]
      }
    },
    {
      "type": "Feature",
      "properties": {
        "marker-color": "#DC4C3F",
        "name": "A23 Streatham H Rd/Hopt",
        "online": false,
        "public": true,
        "marker-symbol": ""
      },
      "geometry": {
        "type": "Point",
        "coordinates": [
          -0.1310516,
          51.42569
        ]
      }
    },
    {
      "type": "Feature",
      "properties": {
        "marker-color": "#DC4C3F",
        "name": "Talgarth Rd/Gliddon R",
        "online": false,
        "public": true,
        "marker-symbol": ""
      },
      "geometry": {
        "type": "Point",
        "coordinates": [
          -0.21424861,
          51.490665
        ]
      }
    },
    {
      "type": "Feature",
      "properties": {
        "marker-color": "#DC4C3F",
        "name": "Finchley Rd/Alvanley Gr",
        "online": false,
        "public": true,
        "marker-symbol": ""
      },
      "geometry": {
        "type": "Point",
        "coordinates": [
          -0.1875094,
          51.552483
        ]
      }
    },
    {
      "type": "Feature",
      "properties": {
        "marker-color": "#DC4C3F",
        "name": "Camberwell New Rd/Brixt",
        "online": false,
        "public": true,
        "marker-symbol": ""
      },
      "geometry": {
        "type": "Point",
        "coordinates": [
          -0.11069393,
          51.48121
        ]
      }
    },
    {
      "type": "Feature",
      "properties": {
        "marker-color": "#DC4C3F",
        "name": "Hanger Lane/Queens Para",
        "online": false,
        "public": true,
        "marker-symbol": ""
      },
      "geometry": {
        "type": "Point",
        "coordinates": [
          -0.29119632,
          51.51692
        ]
      }
    },
    {
      "type": "Feature",
      "properties": {
        "marker-color": "#DC4C3F",
        "name": "Seven Sisters Rd/Manor",
        "online": true,
        "public": true,
        "marker-symbol": ""
      },
      "geometry": {
        "type": "Point",
        "coordinates": [
          -0.09615281,
          51.570602
        ]
      }
    },
    {
      "type": "Feature",
      "properties": {
        "marker-color": "#DC4C3F",
        "name": "Camberwell Ch St/Vicara",
        "online": false,
        "public": true,
        "marker-symbol": ""
      },
      "geometry": {
        "type": "Point",
        "coordinates": [
          -0.087572366,
          51.473442
        ]
      }
    },
    {
      "type": "Feature",
      "properties": {
        "marker-color": "#DC4C3F",
        "name": "Pancras Rd/St Pancras W",
        "online": false,
        "public": true,
        "marker-symbol": ""
      },
      "geometry": {
        "type": "Point",
        "coordinates": [
          -0.13272518,
          51.53558
        ]
      }
    },
    {
      "type": "Feature",
      "properties": {
        "marker-color": "#DC4C3F",
        "name": "Ruckholt Rd/Sherrin R",
        "online": false,
        "public": true,
        "marker-symbol": ""
      },
      "geometry": {
        "type": "Point",
        "coordinates": [
          -0.016960187,
          51.55466
        ]
      }
    },
    {
      "type": "Feature",
      "properties": {
        "marker-color": "#DC4C3F",
        "name": "A102 Blackwall Lan",
        "online": false,
        "public": true,
        "marker-symbol": ""
      },
      "geometry": {
        "type": "Point",
        "coordinates": [
          0.0064665778,
          51.49399
        ]
      }
    },
    {
      "type": "Feature",
      "properties": {
        "marker-color": "#DC4C3F",
        "name": "A501 W of Chiltern S",
        "online": false,
        "public": true,
        "marker-symbol": ""
      },
      "geometry": {
        "type": "Point",
        "coordinates": [
          -0.15677087,
          51.52215
        ]
      }
    },
    {
      "type": "Feature",
      "properties": {
        "marker-color": "#DC4C3F",
        "name": "Woolwich Manor Wa",
        "online": false,
        "public": true,
        "marker-symbol": ""
      },
      "geometry": {
        "type": "Point",
        "coordinates": [
          0.058763,
          51.5206
        ]
      }
    },
    {
      "type": "Feature",
      "properties": {
        "marker-color": "#DC4C3F",
        "name": "Movers Lane Eas",
        "online": false,
        "public": true,
        "marker-symbol": ""
      },
      "geometry": {
        "type": "Point",
        "coordinates": [
          0.099538215,
          51.531437
        ]
      }
    },
    {
      "type": "Feature",
      "properties": {
        "marker-color": "#DC4C3F",
        "name": "Piccadilly/St James S",
        "online": false,
        "public": true,
        "marker-symbol": ""
      },
      "geometry": {
        "type": "Point",
        "coordinates": [
          -0.14051874,
          51.5078
        ]
      }
    },
    {
      "type": "Feature",
      "properties": {
        "marker-color": "#DC4C3F",
        "name": "Charlie Browns M11 Spli",
        "online": false,
        "public": true,
        "marker-symbol": ""
      },
      "geometry": {
        "type": "Point",
        "coordinates": [
          0.030038025,
          51.596123
        ]
      }
    },
    {
      "type": "Feature",
      "properties": {
        "marker-color": "#DC4C3F",
        "name": "High Rd Wood Grn-Ewart",
        "online": false,
        "public": true,
        "marker-symbol": ""
      },
      "geometry": {
        "type": "Point",
        "coordinates": [
          -0.11118041,
          51.5997
        ]
      }
    },
    {
      "type": "Feature",
      "properties": {
        "marker-color": "#DC4C3F",
        "name": "Theobald&#039;s Rd/Bosw",
        "online": false,
        "public": true,
        "marker-symbol": ""
      },
      "geometry": {
        "type": "Point",
        "coordinates": [
          -0.12019045,
          51.51959
        ]
      }
    },
    {
      "type": "Feature",
      "properties": {
        "marker-color": "#DC4C3F",
        "name": "Jamaica Rd W of Abbey S",
        "online": false,
        "public": true,
        "marker-symbol": ""
      },
      "geometry": {
        "type": "Point",
        "coordinates": [
          -0.070339,
          51.49896
        ]
      }
    },
    {
      "type": "Feature",
      "properties": {
        "marker-color": "#DC4C3F",
        "name": "A2 Falconwoo",
        "online": false,
        "public": true,
        "marker-symbol": ""
      },
      "geometry": {
        "type": "Point",
        "coordinates": [
          0.088673085,
          51.455624
        ]
      }
    },
    {
      "type": "Feature",
      "properties": {
        "marker-color": "#DC4C3F",
        "name": "Purley Way/Croydon Roa",
        "online": false,
        "public": true,
        "marker-symbol": ""
      },
      "geometry": {
        "type": "Point",
        "coordinates": [
          -0.11884741,
          51.368023
        ]
      }
    },
    {
      "type": "Feature",
      "properties": {
        "marker-color": "#DC4C3F",
        "name": "Vauxhall Brd Rd/Stanfor",
        "online": false,
        "public": true,
        "marker-symbol": ""
      },
      "geometry": {
        "type": "Point",
        "coordinates": [
          -0.13590373,
          51.49165
        ]
      }
    },
    {
      "type": "Feature",
      "properties": {
        "marker-color": "#DC4C3F",
        "name": "Blackfriars Rd/Stamford",
        "online": false,
        "public": true,
        "marker-symbol": ""
      },
      "geometry": {
        "type": "Point",
        "coordinates": [
          -0.104596764,
          51.506683
        ]
      }
    },
    {
      "type": "Feature",
      "properties": {
        "marker-color": "#DC4C3F",
        "name": "Moscow Car Garage",
        "online": true,
        "public": true,
        "marker-symbol": ""
      },
      "geometry": {
        "type": "Point",
        "coordinates": [
          37.6155556,
          55.7522222
        ]
      }
    },
    {
      "type": "Feature",
      "properties": {
        "marker-color": "#DC4C3F",
        "name": "Cluj-Napoca Romania",
        "online": true,
        "public": true,
        "marker-symbol": ""
      },
      "geometry": {
        "type": "Point",
        "coordinates": [
          23.6,
          46.7666667
        ]
      }
    },
    {
      "type": "Feature",
      "properties": {
        "marker-color": "#DC4C3F",
        "name": "A205 Christchurch Rd/A2",
        "online": false,
        "public": true,
        "marker-symbol": ""
      },
      "geometry": {
        "type": "Point",
        "coordinates": [
          -0.12418331,
          51.445175
        ]
      }
    },
    {
      "type": "Feature",
      "properties": {
        "marker-color": "#DC4C3F",
        "name": "Grt Cambridge Rd/Bury S",
        "online": false,
        "public": true,
        "marker-symbol": ""
      },
      "geometry": {
        "type": "Point",
        "coordinates": [
          -0.06968075,
          51.634098
        ]
      }
    },
    {
      "type": "Feature",
      "properties": {
        "marker-color": "#DC4C3F",
        "name": "A12 Colville Roa",
        "online": false,
        "public": true,
        "marker-symbol": ""
      },
      "geometry": {
        "type": "Point",
        "coordinates": [
          -0.002393717,
          51.559196
        ]
      }
    },
    {
      "type": "Feature",
      "properties": {
        "marker-color": "#DC4C3F",
        "name": "A2 New Cross R/Harts L",
        "online": false,
        "public": true,
        "marker-symbol": ""
      },
      "geometry": {
        "type": "Point",
        "coordinates": [
          -0.042137552,
          51.474545
        ]
      }
    },
    {
      "type": "Feature",
      "properties": {
        "marker-color": "#DC4C3F",
        "name": "Seven Sisters Rd/St An",
        "online": false,
        "public": true,
        "marker-symbol": ""
      },
      "geometry": {
        "type": "Point",
        "coordinates": [
          -0.080977134,
          51.57939
        ]
      }
    },
    {
      "type": "Feature",
      "properties": {
        "marker-color": "#DC4C3F",
        "name": "Camden Rd/St Pancras Wa",
        "online": false,
        "public": true,
        "marker-symbol": ""
      },
      "geometry": {
        "type": "Point",
        "coordinates": [
          -0.13743773,
          51.542706
        ]
      }
    },
    {
      "type": "Feature",
      "properties": {
        "marker-color": "#DC4C3F",
        "name": "A4 Great West Rd/Sutton",
        "online": false,
        "public": true,
        "marker-symbol": ""
      },
      "geometry": {
        "type": "Point",
        "coordinates": [
          -0.26709092,
          51.487473
        ]
      }
    },
    {
      "type": "Feature",
      "properties": {
        "marker-color": "#DC4C3F",
        "name": "A24 Morden Rd/Dorset Ro",
        "online": false,
        "public": true,
        "marker-symbol": ""
      },
      "geometry": {
        "type": "Point",
        "coordinates": [
          -0.192358,
          51.407463
        ]
      }
    },
    {
      "type": "Feature",
      "properties": {
        "marker-color": "#DC4C3F",
        "name": "Peckham High St/Rye Lan",
        "online": false,
        "public": true,
        "marker-symbol": ""
      },
      "geometry": {
        "type": "Point",
        "coordinates": [
          -0.07009803,
          51.47328
        ]
      }
    },
    {
      "type": "Feature",
      "properties": {
        "marker-color": "#DC4C3F",
        "name": "A504 Est End Rd/A406 Nt",
        "online": false,
        "public": true,
        "marker-symbol": ""
      },
      "geometry": {
        "type": "Point",
        "coordinates": [
          -0.18521033,
          51.59393
        ]
      }
    },
    {
      "type": "Feature",
      "properties": {
        "marker-color": "#DC4C3F",
        "name": "Vauxhall Brd Rd/Drummon",
        "online": false,
        "public": true,
        "marker-symbol": ""
      },
      "geometry": {
        "type": "Point",
        "coordinates": [
          -0.13144583,
          51.489697
        ]
      }
    },
    {
      "type": "Feature",
      "properties": {
        "marker-color": "#DC4C3F",
        "name": "Shooters Hill Rd/P o wa",
        "online": false,
        "public": true,
        "marker-symbol": ""
      },
      "geometry": {
        "type": "Point",
        "coordinates": [
          0.015444546,
          51.47348
        ]
      }
    },
    {
      "type": "Feature",
      "properties": {
        "marker-color": "#DC4C3F",
        "name": "Brixton Hill/Morrish R",
        "online": false,
        "public": true,
        "marker-symbol": ""
      },
      "geometry": {
        "type": "Point",
        "coordinates": [
          -0.12421139,
          51.446247
        ]
      }
    },
    {
      "type": "Feature",
      "properties": {
        "marker-color": "#DC4C3F",
        "name": "A10 South of Pearson St",
        "online": false,
        "public": true,
        "marker-symbol": ""
      },
      "geometry": {
        "type": "Point",
        "coordinates": [
          -0.07703902,
          51.53283
        ]
      }
    },
    {
      "type": "Feature",
      "properties": {
        "marker-color": "#DC4C3F",
        "name": "Portman Square/Orchard",
        "online": false,
        "public": true,
        "marker-symbol": ""
      },
      "geometry": {
        "type": "Point",
        "coordinates": [
          -0.1546199,
          51.51545
        ]
      }
    },
    {
      "type": "Feature",
      "properties": {
        "marker-color": "#DC4C3F",
        "name": "Battersea Pk Rd/Albert",
        "online": false,
        "public": true,
        "marker-symbol": ""
      },
      "geometry": {
        "type": "Point",
        "coordinates": [
          -0.16234553,
          51.472813
        ]
      }
    },
    {
      "type": "Feature",
      "properties": {
        "marker-color": "#DC4C3F",
        "name": "Manor Rd/New Plaistow R",
        "online": false,
        "public": true,
        "marker-symbol": ""
      },
      "geometry": {
        "type": "Point",
        "coordinates": [
          0.008812276,
          51.53521
        ]
      }
    },
    {
      "type": "Feature",
      "properties": {
        "marker-color": "#DC4C3F",
        "name": "Ram St/Barchard S",
        "online": false,
        "public": true,
        "marker-symbol": ""
      },
      "geometry": {
        "type": "Point",
        "coordinates": [
          -0.1920207,
          51.458282
        ]
      }
    },
    {
      "type": "Feature",
      "properties": {
        "marker-color": "#DC4C3F",
        "name": "Old Kent Rd/Asylum R",
        "online": false,
        "public": true,
        "marker-symbol": ""
      },
      "geometry": {
        "type": "Point",
        "coordinates": [
          -0.059424482,
          51.480488
        ]
      }
    },
    {
      "type": "Feature",
      "properties": {
        "marker-color": "#DC4C3F",
        "name": "Slike",
        "online": false,
        "public": true,
        "marker-symbol": ""
      },
      "geometry": {
        "type": "Point",
        "coordinates": [
          0.0,
          0.0
        ]
      }
    },
    {
      "type": "Feature",
      "properties": {
        "marker-color": "#DC4C3F",
        "name": "A24 Morden Rd/Merantun",
        "online": false,
        "public": true,
        "marker-symbol": ""
      },
      "geometry": {
        "type": "Point",
        "coordinates": [
          -0.19269466,
          51.41351
        ]
      }
    },
    {
      "type": "Feature",
      "properties": {
        "marker-color": "#DC4C3F",
        "name": "Woolwich Rd/Charlton Ch",
        "online": false,
        "public": true,
        "marker-symbol": ""
      },
      "geometry": {
        "type": "Point",
        "coordinates": [
          0.031100724,
          51.487823
        ]
      }
    },
    {
      "type": "Feature",
      "properties": {
        "marker-color": "#DC4C3F",
        "name": "Eltham Rd/Sidcup R",
        "online": false,
        "public": true,
        "marker-symbol": ""
      },
      "geometry": {
        "type": "Point",
        "coordinates": [
          0.027560798,
          51.45315
        ]
      }
    },
    {
      "type": "Feature",
      "properties": {
        "marker-color": "#DC4C3F",
        "name": "High St/Colliers Wd/Mar",
        "online": false,
        "public": true,
        "marker-symbol": ""
      },
      "geometry": {
        "type": "Point",
        "coordinates": [
          -0.17580523,
          51.420544
        ]
      }
    },
    {
      "type": "Feature",
      "properties": {
        "marker-color": "#DC4C3F",
        "name": "Marsh Wa",
        "online": false,
        "public": true,
        "marker-symbol": ""
      },
      "geometry": {
        "type": "Point",
        "coordinates": [
          0.16845745,
          51.520504
        ]
      }
    },
    {
      "type": "Feature",
      "properties": {
        "marker-color": "#DC4C3F",
        "name": "Warwick Rd Jnc Erls Crt",
        "online": false,
        "public": true,
        "marker-symbol": ""
      },
      "geometry": {
        "type": "Point",
        "coordinates": [
          -0.19411698,
          51.48941
        ]
      }
    },
    {
      "type": "Feature",
      "properties": {
        "marker-color": "#DC4C3F",
        "name": "A10 / Downham Road",
        "online": false,
        "public": true,
        "marker-symbol": ""
      },
      "geometry": {
        "type": "Point",
        "coordinates": [
          -0.076618016,
          51.53905
        ]
      }
    },
    {
      "type": "Feature",
      "properties": {
        "marker-color": "#DC4C3F",
        "name": "A10 Kingsland Rd/Stamfo",
        "online": false,
        "public": true,
        "marker-symbol": ""
      },
      "geometry": {
        "type": "Point",
        "coordinates": [
          -0.0761612,
          51.544415
        ]
      }
    },
    {
      "type": "Feature",
      "properties": {
        "marker-color": "#DC4C3F",
        "name": "Shooters Hill Rd/Charlt",
        "online": false,
        "public": true,
        "marker-symbol": ""
      },
      "geometry": {
        "type": "Point",
        "coordinates": [
          0.00024270378,
          51.47193
        ]
      }
    },
    {
      "type": "Feature",
      "properties": {
        "marker-color": "#DC4C3F",
        "name": "Tweedy Rd E of Sherman",
        "online": false,
        "public": true,
        "marker-symbol": ""
      },
      "geometry": {
        "type": "Point",
        "coordinates": [
          0.01713369,
          51.407936
        ]
      }
    },
    {
      "type": "Feature",
      "properties": {
        "marker-color": "#DC4C3F",
        "name": "Upper Thames St E/B Ent",
        "online": false,
        "public": true,
        "marker-symbol": ""
      },
      "geometry": {
        "type": "Point",
        "coordinates": [
          -0.10139619,
          51.51123
        ]
      }
    },
    {
      "type": "Feature",
      "properties": {
        "marker-color": "#DC4C3F",
        "name": "Kennington Lane/Newingt",
        "online": false,
        "public": true,
        "marker-symbol": ""
      },
      "geometry": {
        "type": "Point",
        "coordinates": [
          -0.102826044,
          51.49138
        ]
      }
    },
    {
      "type": "Feature",
      "properties": {
        "marker-color": "#DC4C3F",
        "name": "A102 Pear Islan",
        "online": false,
        "public": true,
        "marker-symbol": ""
      },
      "geometry": {
        "type": "Point",
        "coordinates": [
          0.002222393,
          51.496105
        ]
      }
    },
    {
      "type": "Feature",
      "properties": {
        "marker-color": "#DC4C3F",
        "name": "High St Colliers Wd/Cav",
        "online": false,
        "public": true,
        "marker-symbol": ""
      },
      "geometry": {
        "type": "Point",
        "coordinates": [
          -0.1774266,
          51.41883
        ]
      }
    },
    {
      "type": "Feature",
      "properties": {
        "marker-color": "#DC4C3F",
        "name": "A4 Bath Rd/The Avenu",
        "online": false,
        "public": true,
        "marker-symbol": ""
      },
      "geometry": {
        "type": "Point",
        "coordinates": [
          -0.41180232,
          51.480045
        ]
      }
    },
    {
      "type": "Feature",
      "properties": {
        "marker-color": "#DC4C3F",
        "name": "A2 New Cross Rd/Avonley",
        "online": false,
        "public": true,
        "marker-symbol": ""
      },
      "geometry": {
        "type": "Point",
        "coordinates": [
          -0.051849607,
          51.47777
        ]
      }
    },
    {
      "type": "Feature",
      "properties": {
        "marker-color": "#DC4C3F",
        "name": "A3 Clapham Rd/Caldwell",
        "online": false,
        "public": true,
        "marker-symbol": ""
      },
      "geometry": {
        "type": "Point",
        "coordinates": [
          -0.116672434,
          51.477673
        ]
      }
    },
    {
      "type": "Feature",
      "properties": {
        "marker-color": "#DC4C3F",
        "name": "Silvertown Way/Tidal Ba",
        "online": false,
        "public": true,
        "marker-symbol": ""
      },
      "geometry": {
        "type": "Point",
        "coordinates": [
          0.016850093,
          51.508274
        ]
      }
    },
    {
      "type": "Feature",
      "properties": {
        "marker-color": "#DC4C3F",
        "name": "Queenstwn Rd/Chelsea Br",
        "online": false,
        "public": true,
        "marker-symbol": ""
      },
      "geometry": {
        "type": "Point",
        "coordinates": [
          -0.14878571,
          51.47982
        ]
      }
    },
    {
      "type": "Feature",
      "properties": {
        "marker-color": "#DC4C3F",
        "name": "HIGH RD LEYTONSTONE G&#",
        "online": false,
        "public": true,
        "marker-symbol": ""
      },
      "geometry": {
        "type": "Point",
        "coordinates": [
          0.013164805,
          51.569794
        ]
      }
    },
    {
      "type": "Feature",
      "properties": {
        "marker-color": "#DC4C3F",
        "name": "Bayswater Rd/Lancaster",
        "online": false,
        "public": true,
        "marker-symbol": ""
      },
      "geometry": {
        "type": "Point",
        "coordinates": [
          -0.17397597,
          51.511852
        ]
      }
    },
    {
      "type": "Feature",
      "properties": {
        "marker-color": "#DC4C3F",
        "name": "Mortimer St/Gt Portland",
        "online": false,
        "public": true,
        "marker-symbol": ""
      },
      "geometry": {
        "type": "Point",
        "coordinates": [
          -0.14151885,
          51.517574
        ]
      }
    },
    {
      "type": "Feature",
      "properties": {
        "marker-color": "#DC4C3F",
        "name": "Oasis Travis Lake Texas",
        "online": false,
        "public": true,
        "marker-symbol": ""
      },
      "geometry": {
        "type": "Point",
        "coordinates": [
          -97.874059,
          30.405428
        ]
      }
    },
    {
      "type": "Feature",
      "properties": {
        "marker-color": "#DC4C3F",
        "name": "A406 Gunnersbury Ave/Gu",
        "online": false,
        "public": true,
        "marker-symbol": ""
      },
      "geometry": {
        "type": "Point",
        "coordinates": [
          -0.2843008,
          51.500584
        ]
      }
    },
    {
      "type": "Feature",
      "properties": {
        "marker-color": "#DC4C3F",
        "name": "Bruce Grove/Woodside Ga",
        "online": false,
        "public": true,
        "marker-symbol": ""
      },